{
    "AL": [
      {"city": "Birmingham", "lat": 33.5186, "lng": -86.8104},
      {"city": "Montgomery", "lat": 32.3668, "lng": -86.3006},
      {"city": "Huntsville", "lat": 34.7304, "lng": -86.5861},
      {"city": "Mobile", "lat": 30.6954, "lng": -88.0399},
      {"city": "Tuscaloosa", "lat": 33.2098, "lng": -87.5692}
    ],
    "AK": [
      {"city": "Anchorage", "lat": 61.2181, "lng": -149.9003},
      {"city": "Fairbanks", "lat": 64.8378, "lng": -147.7164},
      {"city": "Juneau", "lat": 58.3019, "lng": -134.4197},
      {"city": "Sitka", "lat": 57.0531, "lng": -135.3300},
      {"city": "Ketchikan", "lat": 55.3422, "lng": -131.6461}
    ],
    "AZ": [
      {"city": "Phoenix", "lat": 33.4484, "lng": -112.0740},
      {"city": "Tucson", "lat": 32.2226, "lng": -110.9747},
      {"city": "Mesa", "lat": 33.4151, "lng": -111.8315},
      {"city": "Chandler", "lat": 33.3062, "lng": -111.8413},
      {"city": "Scottsdale", "lat": 33.4942, "lng": -111.9261}
    ],
    "AR": [
      {"city": "Little Rock", "lat": 34.7465, "lng": -92.2896},
      {"city": "Fort Smith", "lat": 35.3859, "lng": -94.3985},
      {"city": "Fayetteville", "lat": 36.0822, "lng": -94.1719},
      {"city": "Springdale", "lat": 36.1867, "lng": -94.1288},
      {"city": "Jonesboro", "lat": 35.8423, "lng": -90.7043}
    ],
    "CA": [
      {"city": "Los Angeles", "lat": 34.0522, "lng": -118.2437},
      {"city": "San Diego", "lat": 32.7157, "lng": -117.1611},
      {"city": "San Jose", "lat": 37.3382, "lng": -121.8863},
      {"city": "San Francisco", "lat": 37.7749, "lng": -122.4194},
      {"city": "Fresno", "lat": 36.7378, "lng": -119.7871}
    ],
    "CO": [
      {"city": "Denver", "lat": 39.7392, "lng": -104.9903},
      {"city": "Colorado Springs", "lat": 38.8339, "lng": -104.8214},
      {"city": "Aurora", "lat": 39.7294, "lng": -104.8319},
      {"city": "Fort Collins", "lat": 40.5853, "lng": -105.0844},
      {"city": "Lakewood", "lat": 39.7047, "lng": -105.0814}
    ],
    "CT": [
      {"city": "Bridgeport", "lat": 41.1792, "lng": -73.1894},
      {"city": "New Haven", "lat": 41.3083, "lng": -72.9279},
      {"city": "Stamford", "lat": 41.0534, "lng": -73.5387},
      {"city": "Hartford", "lat": 41.7658, "lng": -72.6734},
      {"city": "Waterbury", "lat": 41.5581, "lng": -73.0515}
    ],
    "DE": [
      {"city": "Wilmington", "lat": 39.7447, "lng": -75.5484},
      {"city": "Dover", "lat": 39.1582, "lng": -75.5244},
      {"city": "Newark", "lat": 39.6837, "lng": -75.7497},
      {"city": "Middletown", "lat": 39.4496, "lng": -75.7163},
      {"city": "Smyrna", "lat": 39.2998, "lng": -75.6055}
    ],
    "FL": [
      {"city": "Jacksonville", "lat": 30.3322, "lng": -81.6557},
      {"city": "Miami", "lat": 25.7617, "lng": -80.1918},
      {"city": "Tampa", "lat": 27.9506, "lng": -82.4572},
      {"city": "Orlando", "lat": 28.5383, "lng": -81.3792},
      {"city": "St. Petersburg", "lat": 27.7676, "lng": -82.6403}
    ],
    "GA": [
      {"city": "Atlanta", "lat": 33.7490, "lng": -84.3880},
      {"city": "Augusta", "lat": 33.4735, "lng": -82.0105},
      {"city": "Columbus", "lat": 32.4610, "lng": -84.9877},
      {"city": "Macon", "lat": 32.8407, "lng": -83.6324},
      {"city": "Savannah", "lat": 32.0809, "lng": -81.0912}
    ],
    "HI": [
      {"city": "Honolulu", "lat": 21.3069, "lng": -157.8583},
      {"city": "East Honolulu", "lat": 21.2891, "lng": -157.7173},
      {"city": "Pearl City", "lat": 21.3973, "lng": -157.9751},
      {"city": "Hilo", "lat": 19.7241, "lng": -155.0868},
      {"city": "Kailua", "lat": 21.4022, "lng": -157.7394}
    ],
    "ID": [
      {"city": "Boise", "lat": 43.6150, "lng": -116.2023},
      {"city": "Meridian", "lat": 43.6121, "lng": -116.3915},
      {"city": "Nampa", "lat": 43.5407, "lng": -116.5635},
      {"city": "Idaho Falls", "lat": 43.4917, "lng": -112.0340},
      {"city": "Pocatello", "lat": 42.8713, "lng": -112.4455}
    ],
    "IL": [
      {"city": "Chicago", "lat": 41.8781, "lng": -87.6298},
      {"city": "Aurora", "lat": 41.7606, "lng": -88.3201},
      {"city": "Naperville", "lat": 41.7508, "lng": -88.1535},
      {"city": "Joliet", "lat": 41.5250, "lng": -88.0817},
      {"city": "Rockford", "lat": 42.2711, "lng": -89.0940}
    ],
    "IN": [
      {"city": "Indianapolis", "lat": 39.7684, "lng": -86.1581},
      {"city": "Fort Wayne", "lat": 41.0793, "lng": -85.1394},
      {"city": "Evansville", "lat": 37.9716, "lng": -87.5711},
      {"city": "South Bend", "lat": 41.6764, "lng": -86.2520},
      {"city": "Carmel", "lat": 39.9784, "lng": -86.1180}
    ],
    "IA": [
      {"city": "Des Moines", "lat": 41.5868, "lng": -93.6250},
      {"city": "Cedar Rapids", "lat": 41.9779, "lng": -91.6656},
      {"city": "Davenport", "lat": 41.5236, "lng": -90.5776},
      {"city": "Sioux City", "lat": 42.4967, "lng": -96.4059},
      {"city": "Iowa City", "lat": 41.6611, "lng": -91.5302}
    ],
    "KS": [
      {"city": "Wichita", "lat": 37.6889, "lng": -97.3361},
      {"city": "Overland Park", "lat": 38.9822, "lng": -94.6708},
      {"city": "Kansas City", "lat": 39.1141, "lng": -94.6275},
      {"city": "Olathe", "lat": 38.8814, "lng": -94.8191},
      {"city": "Topeka", "lat": 39.0473, "lng": -95.6752}
    ],
    "KY": [
      {"city": "Louisville", "lat": 38.2527, "lng": -85.7585},
      {"city": "Lexington", "lat": 37.9887, "lng": -84.4777},
      {"city": "Bowling Green", "lat": 36.9685, "lng": -86.4808},
      {"city": "Owensboro", "lat": 37.7719, "lng": -87.1111},
      {"city": "Covington", "lat": 39.0837, "lng": -84.5083}
    ],
    "LA": [
      {"city": "New Orleans", "lat": 29.9511, "lng": -90.0715},
      {"city": "Baton Rouge", "lat": 30.4515, "lng": -91.1871},
      {"city": "Shreveport", "lat": 32.5252, "lng": -93.7502},
      {"city": "Lafayette", "lat": 30.2241, "lng": -92.0198},
      {"city": "Lake Charles", "lat": 30.2266, "lng": -93.2174}
    ],
    "ME": [
      {"city": "Portland", "lat": 43.6591, "lng": -70.2568},
      {"city": "Lewiston", "lat": 44.1004, "lng": -70.2148},
      {"city": "Bangor", "lat": 44.8016, "lng": -68.7712},
      {"city": "South Portland", "lat": 43.6415, "lng": -70.2409},
      {"city": "Auburn", "lat": 44.0976, "lng": -70.2312}
    ],
    "MD": [
      {"city": "Baltimore", "lat": 39.2904, "lng": -76.6122},
      {"city": "Frederick", "lat": 39.4143, "lng": -77.4105},
      {"city": "Rockville", "lat": 39.0840, "lng": -77.1528},
      {"city": "Gaithersburg", "lat": 39.1434, "lng": -77.2014},
      {"city": "Bowie", "lat": 39.0068, "lng": -76.7791}
    ],
    "MA": [
      {"city": "Boston", "lat": 42.3601, "lng": -71.0589},
      {"city": "Worcester", "lat": 42.2626, "lng": -71.8023},
      {"city": "Springfield", "lat": 42.1015, "lng": -72.5898},
      {"city": "Cambridge", "lat": 42.3736, "lng": -71.1097},
      {"city": "Lowell", "lat": 42.6334, "lng": -71.3162}
    ],
    "MI": [
      {"city": "Detroit", "lat": 42.3314, "lng": -83.0458},
      {"city": "Grand Rapids", "lat": 42.9634, "lng": -85.6681},
      {"city": "Warren", "lat": 42.4775, "lng": -83.0277},
      {"city": "Sterling Heights", "lat": 42.5803, "lng": -83.0302},
      {"city": "Ann Arbor", "lat": 42.2808, "lng": -83.7430}
    ],
    "MN": [
      {"city": "Minneapolis", "lat": 44.9778, "lng": -93.2650},
      {"city": "Saint Paul", "lat": 44.9537, "lng": -93.0900},
      {"city": "Rochester", "lat": 44.0121, "lng": -92.4802},
      {"city": "Duluth", "lat": 46.7867, "lng": -92.1005},
      {"city": "Bloomington", "lat": 44.8408, "lng": -93.2983}
    ],
    "MS": [
      {"city": "Jackson", "lat": 32.2988, "lng": -90.1848},
      {"city": "Gulfport", "lat": 30.3674, "lng": -89.0928},
      {"city": "Southaven", "lat": 34.9919, "lng": -89.9946},
      {"city": "Hattiesburg", "lat": 31.3271, "lng": -89.2903},
      {"city": "Biloxi", "lat": 30.3960, "lng": -88.8853}
    ],
    "MO": [
      {"city": "Kansas City", "lat": 39.0997, "lng": -94.5786},
      {"city": "St. Louis", "lat": 38.6270, "lng": -90.1994},
      {"city": "Springfield", "lat": 37.2090, "lng": -93.2923},
      {"city": "Columbia", "lat": 38.9517, "lng": -92.3341},
      {"city": "Independence", "lat": 39.0911, "lng": -94.4155}
    ],
    "MT": [
      {"city": "Billings", "lat": 45.7833, "lng": -108.5007},
      {"city": "Missoula", "lat": 46.8721, "lng": -113.9940},
      {"city": "Great Falls", "lat": 47.5053, "lng": -111.3008},
      {"city": "Bozeman", "lat": 45.6770, "lng": -111.0429},
      {"city": "Butte", "lat": 46.0038, "lng": -112.5347}
    ],
    "NE": [
      {"city": "Omaha", "lat": 41.2565, "lng": -95.9345},
      {"city": "Lincoln", "lat": 40.8136, "lng": -96.7026},
      {"city": "Bellevue", "lat": 41.1578, "lng": -95.9239},
      {"city": "Grand Island", "lat": 40.9264, "lng": -98.3420},
      {"city": "Kearney", "lat": 40.6995, "lng": -99.0815}
    ],
    "NV": [
      {"city": "Las Vegas", "lat": 36.1716, "lng": -115.1391},
      {"city": "Henderson", "lat": 36.0395, "lng": -114.9817},
      {"city": "Reno", "lat": 39.5296, "lng": -119.8138},
      {"city": "North Las Vegas", "lat": 36.1989, "lng": -115.1175},
      {"city": "Sparks", "lat": 39.5396, "lng": -119.7527}
    ],
    "NH": [
      {"city": "Manchester", "lat": 42.9956, "lng": -71.4548},
      {"city": "Nashua", "lat": 42.7654, "lng": -71.4676},
      {"city": "Concord", "lat": 43.2081, "lng": -71.5376},
      {"city": "Dover", "lat": 43.1979, "lng": -70.8737},
      {"city": "Rochester", "lat": 43.3045, "lng": -70.9756}
    ],
    "NJ": [
      {"city": "Newark", "lat": 40.7357, "lng": -74.1724},
      {"city": "Jersey City", "lat": 40.7178, "lng": -74.0431},
      {"city": "Paterson", "lat": 40.9168, "lng": -74.1718},
      {"city": "Elizabeth", "lat": 40.6640, "lng": -74.2107},
      {"city": "Edison", "lat": 40.5187, "lng": -74.3411}
    ],
    "NM": [
      {"city": "Albuquerque", "lat": 35.0844, "lng": -106.6504},
      {"city": "Las Cruces", "lat": 32.3123, "lng": -106.7784},
      {"city": "Rio Rancho", "lat": 35.2328, "lng": -106.6631},
      {"city": "Santa Fe", "lat": 35.6870, "lng": -105.9378},
      {"city": "Roswell", "lat": 33.3943, "lng": -104.5230}
    ],
    "NY": [
      {"city": "New York City", "lat": 40.7128, "lng": -74.0060},
      {"city": "Buffalo", "lat": 42.8864, "lng": -78.8784},
      {"city": "Rochester", "lat": 43.1566, "lng": -77.6088},
      {"city": "Yonkers", "lat": 40.9312, "lng": -73.8987},
      {"city": "Syracuse", "lat": 43.0481, "lng": -76.1474}
    ],
    "NC": [
      {"city": "Charlotte", "lat": 35.2271, "lng": -80.8431},
      {"city": "Raleigh", "lat": 35.7796, "lng": -78.6382},
      {"city": "Greensboro", "lat": 36.0726, "lng": -79.7920},
      {"city": "Durham", "lat": 35.9940, "lng": -78.8986},
      {"city": "Winston-Salem", "lat": 36.0999, "lng": -80.2442}
    ],
    "ND": [
      {"city": "Fargo", "lat": 46.8772, "lng": -96.7898},
      {"city": "Bismarck", "lat": 46.8083, "lng": -100.7837},
      {"city": "Grand Forks", "lat": 47.9253, "lng": -97.0329},
      {"city": "Minot", "lat": 48.2330, "lng": -101.2923},
      {"city": "West Fargo", "lat": 46.8758, "lng": -96.9004}
    ],
    "OH": [
      {"city": "Columbus", "lat": 39.9612, "lng": -82.9988},
      {"city": "Cleveland", "lat": 41.4993, "lng": -81.6944},
      {"city": "Cincinnati", "lat": 39.1031, "lng": -84.5120},
      {"city": "Toledo", "lat": 41.6528, "lng": -83.5379},
      {"city": "Akron", "lat": 41.0814, "lng": -81.5190}
    ],
    "OK": [
      {"city": "Oklahoma City", "lat": 35.4676, "lng": -97.5164},
      {"city": "Tulsa", "lat": 36.1540, "lng": -95.9928},
      {"city": "Norman", "lat": 35.2226, "lng": -97.4395},
      {"city": "Broken Arrow", "lat": 36.0527, "lng": -95.7908},
      {"city": "Edmond", "lat": 35.6528, "lng": -97.4781}
    ],
    "OR": [
      {"city": "Portland", "lat": 45.5152, "lng": -122.6784},
      {"city": "Salem", "lat": 44.9429, "lng": -123.0351},
      {"city": "Eugene", "lat": 44.0521, "lng": -123.0868},
      {"city": "Gresham", "lat": 45.4998, "lng": -122.4312},
      {"city": "Hillsboro", "lat": 45.5229, "lng": -122.9898}
    ],
    "PA": [
      {"city": "Philadelphia", "lat": 39.9526, "lng": -75.1652},
      {"city": "Pittsburgh", "lat": 40.4406, "lng": -79.9959},
      {"city": "Allentown", "lat": 40.6084, "lng": -75.4902},
      {"city": "Erie", "lat": 42.1292, "lng": -80.0851},
      {"city": "Reading", "lat": 40.3356, "lng": -75.9269}
    ],
    "RI": [
      {"city": "Providence", "lat": 41.8240, "lng": -71.4128},
      {"city": "Warwick", "lat": 41.7001, "lng": -71.4162},
      {"city": "Cranston", "lat": 41.7798, "lng": -71.4373},
      {"city": "Pawtucket", "lat": 41.8787, "lng": -71.3825},
      {"city": "East Providence", "lat": 41.8137, "lng": -71.3701}
    ],
    "SC": [
      {"city": "Columbia", "lat": 34.0007, "lng": -81.0348},
      {"city": "Charleston", "lat": 32.7765, "lng": -79.9311},
      {"city": "North Charleston", "lat": 32.8546, "lng": -79.9748},
      {"city": "Mount Pleasant", "lat": 32.7941, "lng": -79.8626},
      {"city": "Rock Hill", "lat": 34.9249, "lng": -81.0251}
    ],
    "SD": [
      {"city": "Sioux Falls", "lat": 43.5446, "lng": -96.7311},
      {"city": "Rapid City", "lat": 44.0805, "lng": -103.2310},
      {"city": "Aberdeen", "lat": 45.4647, "lng": -98.4865},
      {"city": "Brookings", "lat": 44.3114, "lng": -96.7984},
      {"city": "Watertown", "lat": 44.8994, "lng": -97.1151}
    ],
    "TN": [
      {"city": "Nashville", "lat": 36.1627, "lng": -86.7816},
      {"city": "Memphis", "lat": 35.1495, "lng": -90.0490},
      {"city": "Knoxville", "lat": 35.9606, "lng": -83.9207},
      {"city": "Chattanooga", "lat": 35.0456, "lng": -85.3097},
      {"city": "Clarksville", "lat": 36.5298, "lng": -87.3595}
    ],
    "TX": [
      {"city": "Houston", "lat": 29.7604, "lng": -95.3698},
      {"city": "San Antonio", "lat": 29.4241, "lng": -98.4936},
      {"city": "Dallas", "lat": 32.7767, "lng": -96.7970},
      {"city": "Austin", "lat": 30.2672, "lng": -97.7431},
      {"city": "Fort Worth", "lat": 32.7555, "lng": -97.3308}
    ],
    "UT": [
      {"city": "Salt Lake City", "lat": 40.7608, "lng": -111.8910},
      {"city": "West Valley City", "lat": 40.6916, "lng": -111.9738},
      {"city": "Provo", "lat": 40.2338, "lng": -111.6585},
      {"city": "West Jordan", "lat": 40.6063, "lng": -111.9761},
      {"city": "Orem", "lat": 40.2969, "lng": -111.6946}
    ],
    "VT": [
      {"city": "Burlington", "lat": 44.4759, "lng": -73.2121},
      {"city": "South Burlington", "lat": 44.4669, "lng": -73.1709},
      {"city": "Rutland", "lat": 43.6101, "lng": -72.9726},
      {"city": "Barre", "lat": 44.1970, "lng": -72.5020},
      {"city": "Montpelier", "lat": 44.2601, "lng": -72.5754}
    ],
    "VA": [
      {"city": "Virginia Beach", "lat": 36.8529, "lng": -75.9780},
      {"city": "Norfolk", "lat": 36.8508, "lng": -76.2859},
      {"city": "Chesapeake", "lat": 36.7682, "lng": -76.2875},
      {"city": "Richmond", "lat": 37.5407, "lng": -77.4360},
      {"city": "Newport News", "lat": 37.0871, "lng": -76.4730}
    ],
    "WA": [
      {"city": "Seattle", "lat": 47.6062, "lng": -122.3321},
      {"city": "Spokane", "lat": 47.6588, "lng": -117.4260},
      {"city": "Tacoma", "lat": 47.2529, "lng": -122.4443},
      {"city": "Vancouver", "lat": 45.6307, "lng": -122.6713},
      {"city": "Bellevue", "lat": 47.6101, "lng": -122.2015}
    ],
    "WV": [
      {"city": "Charleston", "lat": 38.3498, "lng": -81.6326},
      {"city": "Huntington", "lat": 38.4193, "lng": -82.4452},
      {"city": "Morgantown", "lat": 39.6295, "lng": -79.9559},
      {"city": "Parkersburg", "lat": 39.2667, "lng": -81.5615},
      {"city": "Wheeling", "lat": 40.0637, "lng": -80.7209}
    ],
    "WI": [
      {"city": "Milwaukee", "lat": 43.0389, "lng": -87.9065},
      {"city": "Madison", "lat": 43.0731, "lng": -89.4012},
      {"city": "Green Bay", "lat": 44.5133, "lng": -88.0133},
      {"city": "Kenosha", "lat": 42.5847, "lng": -87.8212},
      {"city": "Racine", "lat": 42.7261, "lng": -87.7811}
    ],
    "WY": [
      {"city": "Cheyenne", "lat": 41.1400, "lng": -104.8202},
      {"city": "Casper", "lat": 42.8501, "lng": -106.3252},
      {"city": "Laramie", "lat": 41.3114, "lng": -105.5911},
      {"city": "Gillette", "lat": 44.2906, "lng": -105.5019},
      {"city": "Rock Springs", "lat": 41.5875, "lng": -109.2029}
    ]
  }
  